{
  "type": "FeatureCollection",
  "features": [
    { "type": "Feature", "properties": { "NOMBRE": "ENDE DEORURO S.A." }, "geometry": { "type": "Point", "coordinates": [ -67.11089126765728, -17.98287211476605 ] } },
    { "type": "Feature", "properties": { "NOMBRE": "ENDE DEORURO S.A. SUCURSAL NORTE" }, "geometry": { "type": "Point", "coordinates": [ -67.1006841212511, -17.95494341455147 ] } },
    { "type": "Feature", "properties": { "NOMBRE": "COTEOR R.L. CENTRO" }, "geometry": { "type": "Point", "coordinates": [ -67.11392719298601, -17.97004591024184 ] } },
    { "type": "Feature", "properties": { "NOMBRE": "COTEOR R.L. NORTE" }, "geometry": { "type": "Point", "coordinates": [ -67.10995819419622, -17.953367804802106 ] } },
    { "type": "Feature", "properties": { "NOMBRE": "COTEOR R.L. SUD" }, "geometry": { "type": "Point", "coordinates": [ -67.13040601462126, -17.97913778551131 ] } },
    { "type": "Feature", "properties": { "NOMBRE": "COTEOR R.L. ESTE" }, "geometry": { "type": "Point", "coordinates": [ -67.10420317947865, -17.96784885210769 ] } },
    { "type": "Feature", "properties": { "NOMBRE": "COTEOR R.L. SAN JOSE" }, "geometry": { "type": "Point", "coordinates": [ -67.11930435150862, -17.954282872173437 ] } },
    { "type": "Feature", "properties": { "NOMBRE": "BANCO NACIONAL S.A." }, "geometry": { "type": "Point", "coordinates": [ -67.11461048573256, -17.970596047535086 ] } },
    { "type": "Feature", "properties": { "NOMBRE": "BANCO NACIONAL S.A. MERCADO BOLIVAR" }, "geometry": { "type": "Point", "coordinates": [ -67.10568107664585, -17.972056693600162 ] } },
    { "type": "Feature", "properties": { "NOMBRE": "BANCO NACIONAL S.A. MERCADO YOUNG" }, "geometry": { "type": "Point", "coordinates": [ -67.13192414492369, -17.978852684882952 ] } },
    { "type": "Feature", "properties": { "NOMBRE": "BANCO FIE S.A." }, "geometry": { "type": "Point", "coordinates": [ -67.1115966886282, -17.97188798640744 ] } },
    { "type": "Feature", "properties": { "NOMBRE": "BANCO FIE S.A. MERCADO BOLIVAR" }, "geometry": { "type": "Point", "coordinates": [ -67.10457030683756, -17.972519441613557 ] } },
    { "type": "Feature", "properties": { "NOMBRE": "BANCO FIE S.A. PARQUE DE LA UNION" }, "geometry": { "type": "Point", "coordinates": [ -67.10997395217419, -17.9613611681265 ] } },
    { "type": "Feature", "properties": { "NOMBRE": "BANCO FIE MERCADO YOUNG" }, "geometry": { "type": "Point", "coordinates": [ -67.13221717625856, -17.977816560266326 ] } },
    { "type": "Feature", "properties": { "NOMBRE": "BANCO ECOFUTURO S.A." }, "geometry": { "type": "Point", "coordinates": [ -67.11251400411129, -17.967850446730836 ] } },
    { "type": "Feature", "properties": { "NOMBRE": "BANCO ECOFUTURO S.A. MERCADO BOLIVAR" }, "geometry": { "type": "Point", "coordinates": [ -67.10682235658169, -17.97181622999117 ] } },
    { "type": "Feature", "properties": { "NOMBRE": "BANCO ECOFUTURO S.A. S. PAGADOR" }, "geometry": { "type": "Point", "coordinates": [ -67.11004100739956, -17.953108816592874 ] } },
    { "type": "Feature", "properties": { "NOMBRE": "BANCO ECOFUTURO S.A. MERCADO YOUNG" }, "geometry": { "type": "Point", "coordinates": [ -67.13367026299238, -17.978430135565738 ] } },
    { "type": "Feature", "properties": { "NOMBRE": "BANCO ECOFUTURO S.A. SUCURSAL TAGARETE" }, "geometry": { "type": "Point", "coordinates": [ -67.0947789028287, -17.9712963937495 ] } },
    { "type": "Feature", "properties": { "NOMBRE": "BANCO ECOFUTURO S.A. SUCURSAL AV. AL VALLE" }, "geometry": { "type": "Point", "coordinates": [ -67.1070597320795, -17.946212637594485 ] } },
    { "type": "Feature", "properties": { "NOMBRE": "BANCO SOLIDARIO S.A." }, "geometry": { "type": "Point", "coordinates": [ -67.11221728473902, -17.97224262213442 ] } },
    { "type": "Feature", "properties": { "NOMBRE": "BANCO SOLIDARIO S.A." }, "geometry": { "type": "Point", "coordinates": [ -67.11493168026209, -17.96864807542983 ] } },
    { "type": "Feature", "properties": { "NOMBRE": "BANCO SOLIDARIO S.A.SUCURSAL RODRIGUEZ" }, "geometry": { "type": "Point", "coordinates": [ -67.10053224116564, -17.96200446155758 ] } },
    { "type": "Feature", "properties": { "NOMBRE": "BANCO SOLIDARIO S.A. SUCURSAL MERCADO YOUNG" }, "geometry": { "type": "Point", "coordinates": [ -67.13181618601084, -17.978901158400358 ] } },
    { "type": "Feature", "properties": { "NOMBRE": "BANCO FORTALEZA S.A." }, "geometry": { "type": "Point", "coordinates": [ -67.11480628699064, -17.970988318297803 ] } },
    { "type": "Feature", "properties": { "NOMBRE": "BANCO FORTALEZA S.A. SUCURSAL TAGARETE" }, "geometry": { "type": "Point", "coordinates": [ -67.09491334855556, -17.971037431811613 ] } },
    { "type": "Feature", "properties": { "NOMBRE": "DIACONIA" }, "geometry": { "type": "Point", "coordinates": [ -67.10527908056974, -17.972784460777508 ] } },
    { "type": "Feature", "properties": { "NOMBRE": "DIACONIA SUCURSAL TAGARETE" }, "geometry": { "type": "Point", "coordinates": [ -67.09471084177494, -17.971311701832462 ] } },
    { "type": "Feature", "properties": { "NOMBRE": "DIACONIA SUCURSAL MERCADO YOUNG" }, "geometry": { "type": "Point", "coordinates": [ -67.13322769850492, -17.978532185304786 ] } },
    { "type": "Feature", "properties": { "NOMBRE": "COOP. PAULO VI R.L." }, "geometry": { "type": "Point", "coordinates": [ -67.10865329951048, -17.95310084281194 ] } },
    { "type": "Feature", "properties": { "NOMBRE": "COOP. PAULO VI R.L. CENTRO" }, "geometry": { "type": "Point", "coordinates": [ -67.11156383156776, -17.96764027527469 ] } },
    { "type": "Feature", "properties": { "NOMBRE": "CRECER IFD NORTE" }, "geometry": { "type": "Point", "coordinates": [ -67.11171202361584, -17.949660282268432 ] } },
    { "type": "Feature", "properties": { "NOMBRE": "CRECER IFD CENTRO" }, "geometry": { "type": "Point", "coordinates": [ -67.10941772907972, -17.966877723931756 ] } },
    { "type": "Feature", "properties": { "NOMBRE": "CRECER IFD SUD" }, "geometry": { "type": "Point", "coordinates": [ -67.12929055094719, -17.979685024353664 ] } },
    { "type": "Feature", "properties": { "NOMBRE": "CIDRE IFD" }, "geometry": { "type": "Point", "coordinates": [ -67.10941839963198, -17.966776624238527 ] } },
    { "type": "Feature", "properties": { "NOMBRE": "BANCO DE CREDITO DE BOLIVIA S.A." }, "geometry": { "type": "Point", "coordinates": [ -67.11545772850513, -17.969958207036743 ] } },
    { "type": "Feature", "properties": { "NOMBRE": "EL PROGRESO EFV" }, "geometry": { "type": "Point", "coordinates": [ -67.11463127285242, -17.9708795668972 ] } },
    { "type": "Feature", "properties": { "NOMBRE": "EL PROGRESO EFV SUCURSAL" }, "geometry": { "type": "Point", "coordinates": [ -67.1105170994997, -17.96755607905216 ] } },
    { "type": "Feature", "properties": { "NOMBRE": "EL PROGRESO EFV SUCURSAL" }, "geometry": { "type": "Point", "coordinates": [ -67.10962526500225, -17.95927276062138 ] } },
    { "type": "Feature", "properties": { "NOMBRE": "PRO-MUJER IFD" }, "geometry": { "type": "Point", "coordinates": [ -67.10388198494911, -17.970508344603125 ] } },
    { "type": "Feature", "properties": { "NOMBRE": "PRO-MUJER IFD NORTE" }, "geometry": { "type": "Point", "coordinates": [ -67.11149744689465, -17.949951809137247 ] } },
    { "type": "Feature", "properties": { "NOMBRE": "PRO-MUJER IFD" }, "geometry": { "type": "Point", "coordinates": [ -67.11503695696592, -17.97209783389304 ] } }
  ]
}